{
  "type": "FeatureCollection",
  "features": [
    {"type":"Feature","properties":{"editdate":"","location":"Sennott Park"},"geometry":{"type":"Point","coordinates":[-71.10044906864844,42.368857904335684]}},{"type":"Feature","properties":{"editdate":"","location":"Memorial Drive Tot Lot"},"geometry":{"type":"Point","coordinates":[-71.13162341900257,42.37454678473091]}},{"type":"Feature","properties":{"editdate":"","location":"Cambridge Common"},"geometry":{"type":"Point","coordinates":[-71.1213808344951,42.37741288669148]}},{"type":"Feature","properties":{"editdate":"","location":"Alberico Park"},"geometry":{"type":"Point","coordinates":[-71.11264596576117,42.36096539529446]}},{"type":"Feature","properties":{"editdate":"","location":"Alden Playground"},"geometry":{"type":"Point","coordinates":[-71.11640264116494,42.38285558259911]}},{"type":"Feature","properties":{"editdate":"","location":"Bergin Park"},"geometry":{"type":"Point","coordinates":[-71.1272220231994,42.39063011966696]}},{"type":"Feature","properties":{"editdate":"","location":"Clement G. Morgan Park"},"geometry":{"type":"Point","coordinates":[-71.09829867136767,42.36460964322271]}},{"type":"Feature","properties":{"editdate":"","location":"Cooper Park"},"geometry":{"type":"Point","coordinates":[-71.10778851565662,42.369526815228824]}},{"type":"Feature","properties":{"editdate":"","location":"Corporal Burns Park"},"geometry":{"type":"Point","coordinates":[-71.11517985006118,42.36732477043261]}},{"type":"Feature","properties":{"editdate":"","location":"Corcoran Field"},"geometry":{"type":"Point","coordinates":[-71.1277992409319,42.38708386074962]}},{"type":"Feature","properties":{"editdate":"","location":"Market Street Park"},"geometry":{"type":"Point","coordinates":[-71.09419744396048,42.367383220645664]}},{"type":"Feature","properties":{"editdate":"","location":"Greene â\u0080¢ Rose Heritage Park"},"geometry":{"type":"Point","coordinates":[-71.0950220710357,42.3663161277754]}},{"type":"Feature","properties":{"editdate":"","location":"David Nunes Park"},"geometry":{"type":"Point","coordinates":[-71.1082510733004,42.35783619475511]}},{"type":"Feature","properties":{"editdate":"","location":"Clarendon Avenue Playground"},"geometry":{"type":"Point","coordinates":[-71.13249157654145,42.3997963321242]}},{"type":"Feature","properties":{"editdate":"","location":"Haggerty School"},"geometry":{"type":"Point","coordinates":[-71.15283167664495,42.37834107985659]}},{"type":"Feature","properties":{"editdate":"","location":"Larch Road Park"},"geometry":{"type":"Point","coordinates":[-71.14275377652295,42.379256132913106]}},{"type":"Feature","properties":{"editdate":"","location":"Hoyt Field"},"geometry":{"type":"Point","coordinates":[-71.11242812570974,42.36330547193294]}},{"type":"Feature","properties":{"editdate":"","location":"Riverside Press Park"},"geometry":{"type":"Point","coordinates":[-71.11482978959427,42.362256877064866]}},{"type":"Feature","properties":{"editdate":"","location":"Silva Park"},"geometry":{"type":"Point","coordinates":[-71.08133432398711,42.37072326088616]}},{"type":"Feature","properties":{"editdate":"","location":"Kennedy/Longfellow School"},"geometry":{"type":"Point","coordinates":[-71.08578466090194,42.3691128192888]}},{"type":"Feature","properties":{"editdate":"","location":"King School"},"geometry":{"type":"Point","coordinates":[-71.11247542842872,42.36652235036895]}},{"type":"Feature","properties":{"editdate":"","location":"Maple Avenue Park"},"geometry":{"type":"Point","coordinates":[-71.1042328359874,42.37333609146691]}},{"type":"Feature","properties":{"editdate":"","location":"St. Peter's Field"},"geometry":{"type":"Point","coordinates":[-71.13187807499808,42.38640449140428]}},{"type":"Feature","properties":{"editdate":"","location":"Rafferty Park"},"geometry":{"type":"Point","coordinates":[-71.1552991712163,42.392697357012125]}},{"type":"Feature","properties":{"editdate":"","location":"Reverend Williams Park"},"geometry":{"type":"Point","coordinates":[-71.13045662566189,42.3956175339033]}},{"type":"Feature","properties":{"editdate":"","location":"Wilder-Lee Park"},"geometry":{"type":"Point","coordinates":[-71.10514219869769,42.370163497651994]}},{"type":"Feature","properties":{"editdate":"","location":"Morse School"},"geometry":{"type":"Point","coordinates":[-71.11165971268856,42.3553790126522]}},{"type":"Feature","properties":{"editdate":"","location":"Lechmere Canal Park"},"geometry":{"type":"Point","coordinates":[-71.075436476894,42.36994718569737]}},{"type":"Feature","properties":{"editdate":"","location":"Charles Park"},"geometry":{"type":"Point","coordinates":[-71.07667919854573,42.36621627392912]}},{"type":"Feature","properties":{"editdate":"","location":"Danehy Park"},"geometry":{"type":"Point","coordinates":[-71.13742381210643,42.38904696020819]}},{"type":"Feature","properties":{"editdate":"","location":"Danehy Park"},"geometry":{"type":"Point","coordinates":[-71.13341526378649,42.38902597184331]}},{"type":"Feature","properties":{"editdate":"","location":"Peabody School"},"geometry":{"type":"Point","coordinates":[-71.12897947450062,42.3919373889946]}},{"type":"Feature","properties":{"editdate":"","location":"Fletcher/Maynard Academy"},"geometry":{"type":"Point","coordinates":[-71.09604374657235,42.36646029973152]}},{"type":"Feature","properties":{"editdate":"","location":"Hoyt Field"},"geometry":{"type":"Point","coordinates":[-71.11151451530085,42.363780984624775]}},{"type":"Feature","properties":{"editdate":"","location":"Gannet/Warren Pals Park"},"geometry":{"type":"Point","coordinates":[-71.08957941044694,42.37289346552176]}},{"type":"Feature","properties":{"editdate":"","location":"Glacken Field"},"geometry":{"type":"Point","coordinates":[-71.15109521233597,42.38006535560408]}},{"type":"Feature","properties":{"editdate":"","location":"Pine Street Park"},"geometry":{"type":"Point","coordinates":[-71.09795100058307,42.36435760740351]}},{"type":"Feature","properties":{"editdate":"","location":"Sacramento Field"},"geometry":{"type":"Point","coordinates":[-71.11819315498211,42.38297281043852]}},{"type":"Feature","properties":{"editdate":"","location":"Russell/Samp Field"},"geometry":{"type":"Point","coordinates":[-71.13772531731378,42.395061431257375]}},{"type":"Feature","properties":{"editdate":"","location":"North Point Park Playground"},"geometry":{"type":"Point","coordinates":[-71.06878437831134,42.36909545619452]}},{"type":"Feature","properties":{"editdate":"","location":"Longfellow School West"},"geometry":{"type":"Point","coordinates":[-71.10438532336816,42.37106454285821]}},{"type":"Feature","properties":{"editdate":"","location":"Longfellow School East"},"geometry":{"type":"Point","coordinates":[-71.10361836410335,42.370750284339984]}},{"type":"Feature","properties":{"editdate":"","location":"Main Library Tot Lot"},"geometry":{"type":"Point","coordinates":[-71.11106649032406,42.37364822435173]}},{"type":"Feature","properties":{"editdate":"2013","location":"Father Callanan Playground"},"geometry":{"type":"Point","coordinates":[-71.13938650119641,42.38503571104219]}},{"type":"Feature","properties":{"editdate":"2013","location":"Father Callanan Playground"},"geometry":{"type":"Point","coordinates":[-71.13904323207825,42.38462635240224]}},{"type":"Feature","properties":{"editdate":"","location":"Costa Lopez Park"},"geometry":{"type":"Point","coordinates":[-71.08031399775756,42.367906319359605]}},{"type":"Feature","properties":{"editdate":"","location":"Dana Park"},"geometry":{"type":"Point","coordinates":[-71.10755536254915,42.3610350477166]}},{"type":"Feature","properties":{"editdate":"","location":"Fulmore Park"},"geometry":{"type":"Point","coordinates":[-71.10667219684181,42.35736227214144]}},{"type":"Feature","properties":{"editdate":"","location":"Lowell School Park"},"geometry":{"type":"Point","coordinates":[-71.13364298588215,42.37507972175236]}},{"type":"Feature","properties":{"editdate":"","location":"Gold Star Mothers Park"},"geometry":{"type":"Point","coordinates":[-71.08359634160392,42.372397756281245]}},{"type":"Feature","properties":{"editdate":"","location":"Paine Park"},"geometry":{"type":"Point","coordinates":[-71.1014303452726,42.37097532282458]}},{"type":"Feature","properties":{"editdate":"","location":"Graham and Parks School"},"geometry":{"type":"Point","coordinates":[-71.1236037561885,42.382240661478676]}},{"type":"Feature","properties":{"editdate":"","location":"Donnelly Field"},"geometry":{"type":"Point","coordinates":[-71.09175949978403,42.371326232411356]}},{"type":"Feature","properties":{"editdate":"","location":"Cambridgeport School"},"geometry":{"type":"Point","coordinates":[-71.09755572261504,42.36978961530808]}},{"type":"Feature","properties":{"editdate":"","location":"Gibbons Park"},"geometry":{"type":"Point","coordinates":[-71.1377539297001,42.39974578155618]}},{"type":"Feature","properties":{"editdate":"","location":"Lopez Street Park"},"geometry":{"type":"Point","coordinates":[-71.10520359502326,42.361471848010524]}},{"type":"Feature","properties":{"editdate":"","location":"Hurley Park"},"geometry":{"type":"Point","coordinates":[-71.08290265962943,42.36832194018059]}},{"type":"Feature","properties":{"editdate":"","location":"Magazine Beach"},"geometry":{"type":"Point","coordinates":[-71.11244539126449,42.35472400884734]}}]
}